
[
  {
    "title": "Fence Masters",
    "link": "https://maps.google.com/?cid=1234567890",
    "website": "https://www.fencemasters.com",
    "stars": 4.8,
    "reviews": 256.0,
    "phone": "(817) 555-1234",
    "address": "123 Main St",
    "city": "FortWorth",
    "state": "Texas",
    "formatted_address": "123 Main St, Fort Worth, TX 76102, USA",
    "latitude": 32.755,
    "longitude": -97.330,
    "category": "Fence Contactors",
    "photo_url": "https://images.unsplash.com/photo-1589939705384-5185137a7f0f?ixlib=rb-4.0.3&ixid=MnwxMjA3fDB8MHxzZWFyY2h8M3x8ZmVuY2V8ZW58MHx8MHx8&auto=format&fit=crop&w=500&q=60",
    "updated_image": "https://images.unsplash.com/photo-1589939705384-5185137a7f0f?ixlib=rb-4.0.3&ixid=MnwxMjA3fDB8MHxzZWFyY2h8M3x8ZmVuY2V8ZW58MHx8MHx8&auto=format&fit=crop&w=800&q=80",
    "image_downloaded": true,
    "unique_id": "fence_masters_fw",
    "geohash": "9vf9z5urg120",
    "neighbors": ["premium_fences_fw", "all_star_fencing", "texas_fence_co"],
    "local_image_path": "fence_masters_fw.jpg"
  },
  {
    "title": "Premium Fences",
    "link": "https://maps.google.com/?cid=2345678901",
    "website": "https://www.premiumfences.com",
    "stars": 4.6,
    "reviews": 189.0,
    "phone": "(817) 555-2345",
    "address": "456 Oak St",
    "city": "FortWorth",
    "state": "Texas",
    "formatted_address": "456 Oak St, Fort Worth, TX 76104, USA",
    "latitude": 32.740,
    "longitude": -97.345,
    "category": "Fence Contactors",
    "photo_url": "https://images.unsplash.com/photo-1595229202199-8bb355be6878?ixlib=rb-4.0.3&ixid=MnwxMjA3fDB8MHxzZWFyY2h8Nnx8ZmVuY2V8ZW58MHx8MHx8&auto=format&fit=crop&w=500&q=60",
    "updated_image": "https://images.unsplash.com/photo-1595229202199-8bb355be6878?ixlib=rb-4.0.3&ixid=MnwxMjA3fDB8MHxzZWFyY2h8Nnx8ZmVuY2V8ZW58MHx8MHx8&auto=format&fit=crop&w=800&q=80",
    "image_downloaded": true,
    "unique_id": "premium_fences_fw",
    "geohash": "9vf9z1urh890",
    "neighbors": ["fence_masters_fw", "all_star_fencing", "texas_fence_co"],
    "local_image_path": "premium_fences_fw.jpg"
  },
  {
    "title": "All Star Fencing",
    "link": "https://maps.google.com/?cid=3456789012",
    "website": "https://www.allstarfencing.com",
    "stars": 4.9,
    "reviews": 312.0,
    "phone": "(817) 555-3456",
    "address": "789 Elm St",
    "city": "FortWorth",
    "state": "Texas",
    "formatted_address": "789 Elm St, Fort Worth, TX 76110, USA",
    "latitude": 32.720,
    "longitude": -97.315,
    "category": "Fence Contactors",
    "photo_url": "https://images.unsplash.com/photo-1607140979705-ccf6fe9e3064?ixlib=rb-4.0.3&ixid=MnwxMjA3fDB8MHxzZWFyY2h8MTV8fGZlbmNlfGVufDB8fDB8fA%3D%3D&auto=format&fit=crop&w=500&q=60",
    "updated_image": "https://images.unsplash.com/photo-1607140979705-ccf6fe9e3064?ixlib=rb-4.0.3&ixid=MnwxMjA3fDB8MHxzZWFyY2h8MTV8fGZlbmNlfGVufDB8fDB8fA%3D%3D&auto=format&fit=crop&w=800&q=80",
    "image_downloaded": true,
    "unique_id": "all_star_fencing",
    "geohash": "9vf9z7urt456",
    "neighbors": ["fence_masters_fw", "premium_fences_fw", "texas_fence_co"],
    "local_image_path": "all_star_fencing.jpg"
  },
  {
    "title": "Texas Fence Co",
    "link": "https://maps.google.com/?cid=4567890123",
    "website": "https://www.texasfenceco.com",
    "stars": 4.7,
    "reviews": 243.0,
    "phone": "(817) 555-4567",
    "address": "101 Pine St",
    "city": "FortWorth",
    "state": "Texas",
    "formatted_address": "101 Pine St, Fort Worth, TX 76106, USA",
    "latitude": 32.785,
    "longitude": -97.355,
    "category": "Fence Contactors",
    "photo_url": "https://images.unsplash.com/photo-1578073541722-4d1d2bf4c6c5?ixlib=rb-4.0.3&ixid=MnwxMjA3fDB8MHxzZWFyY2h8MXx8d29vZGVuJTIwZmVuY2V8ZW58MHx8MHx8&auto=format&fit=crop&w=500&q=60",
    "updated_image": "https://images.unsplash.com/photo-1578073541722-4d1d2bf4c6c5?ixlib=rb-4.0.3&ixid=MnwxMjA3fDB8MHxzZWFyY2h8MXx8d29vZGVuJTIwZmVuY2V8ZW58MHx8MHx8&auto=format&fit=crop&w=800&q=80",
    "image_downloaded": true,
    "unique_id": "texas_fence_co",
    "geohash": "9vf9z9urs789",
    "neighbors": ["fence_masters_fw", "premium_fences_fw", "all_star_fencing"],
    "local_image_path": "texas_fence_co.jpg"
  },
  {
    "title": "Houston Fence Pros",
    "link": "https://maps.google.com/?cid=5678901234",
    "website": "https://www.houstonfencepros.com",
    "stars": 4.8,
    "reviews": 267.0,
    "phone": "(713) 555-5678",
    "address": "202 Smith St",
    "city": "Houston",
    "state": "Texas",
    "formatted_address": "202 Smith St, Houston, TX 77002, USA",
    "latitude": 29.760,
    "longitude": -95.370,
    "category": "Fence Contactors",
    "photo_url": "https://images.unsplash.com/photo-1555680202-c86f0e12f086?ixlib=rb-4.0.3&ixid=MnwxMjA3fDB8MHxzZWFyY2h8MXx8bWV0YWwlMjBmZW5jZXxlbnwwfHwwfHw%3D&auto=format&fit=crop&w=500&q=60",
    "updated_image": "https://images.unsplash.com/photo-1555680202-c86f0e12f086?ixlib=rb-4.0.3&ixid=MnwxMjA3fDB8MHxzZWFyY2h8MXx8bWV0YWwlMjBmZW5jZXxlbnwwfHwwfHw%3D&auto=format&fit=crop&w=800&q=80",
    "image_downloaded": true,
    "unique_id": "houston_fence_pros",
    "geohash": "9vd77suqp123",
    "neighbors": ["bayou_fencing", "quality_fence_houston"],
    "local_image_path": "houston_fence_pros.jpg"
  },
  {
    "title": "Bayou Fencing",
    "link": "https://maps.google.com/?cid=6789012345",
    "website": "https://www.bayoufencing.com",
    "stars": 4.5,
    "reviews": 189.0,
    "phone": "(713) 555-6789",
    "address": "303 Jones St",
    "city": "Houston",
    "state": "Texas",
    "formatted_address": "303 Jones St, Houston, TX 77003, USA",
    "latitude": 29.750,
    "longitude": -95.355,
    "category": "Fence Contactors",
    "photo_url": "https://images.unsplash.com/photo-1533748430324-1f3d1beb2a60?ixlib=rb-4.0.3&ixid=MnwxMjA3fDB8MHxzZWFyY2h8NXx8ZmVuY2V8ZW58MHx8MHx8&auto=format&fit=crop&w=500&q=60",
    "updated_image": "https://images.unsplash.com/photo-1533748430324-1f3d1beb2a60?ixlib=rb-4.0.3&ixid=MnwxMjA3fDB8MHxzZWFyY2h8NXx8ZmVuY2V8ZW58MHx8MHx8&auto=format&fit=crop&w=800&q=80",
    "image_downloaded": true,
    "unique_id": "bayou_fencing",
    "geohash": "9vd77tuqr456",
    "neighbors": ["houston_fence_pros", "quality_fence_houston"],
    "local_image_path": "bayou_fencing.jpg"
  },
  {
    "title": "Quality Fence Houston",
    "link": "https://maps.google.com/?cid=7890123456",
    "website": "https://www.qualityfencehouston.com",
    "stars": 4.7,
    "reviews": 231.0,
    "phone": "(713) 555-7890",
    "address": "404 Travis St",
    "city": "Houston",
    "state": "Texas",
    "formatted_address": "404 Travis St, Houston, TX 77006, USA",
    "latitude": 29.765,
    "longitude": -95.385,
    "category": "Fence Contactors",
    "photo_url": "https://images.unsplash.com/photo-1587164788703-e7d62fe13bdb?ixlib=rb-4.0.3&ixid=MnwxMjA3fDB8MHxzZWFyY2h8Mnx8ZmVuY2UlMjBpbnN0YWxsYXRpb258ZW58MHx8MHx8&auto=format&fit=crop&w=500&q=60",
    "updated_image": "https://images.unsplash.com/photo-1587164788703-e7d62fe13bdb?ixlib=rb-4.0.3&ixid=MnwxMjA3fDB8MHxzZWFyY2h8Mnx8ZmVuY2UlMjBpbnN0YWxsYXRpb258ZW58MHx8MHx8&auto=format&fit=crop&w=800&q=80",
    "image_downloaded": true,
    "unique_id": "quality_fence_houston",
    "geohash": "9vd77puqs789",
    "neighbors": ["houston_fence_pros", "bayou_fencing"],
    "local_image_path": "quality_fence_houston.jpg"
  },
  {
    "title": "Phoenix Fence Solutions",
    "link": "https://maps.google.com/?cid=8901234567",
    "website": "https://www.phoenixfencesolutions.com",
    "stars": 4.9,
    "reviews": 298.0,
    "phone": "(602) 555-8901",
    "address": "505 Central Ave",
    "city": "Phoenix",
    "state": "Arizona",
    "formatted_address": "505 Central Ave, Phoenix, AZ 85004, USA",
    "latitude": 33.455,
    "longitude": -112.075,
    "category": "Fence Contactors",
    "photo_url": "https://images.unsplash.com/photo-1631646109232-9e1cdecb7c13?ixlib=rb-4.0.3&ixid=MnwxMjA3fDB8MHxzZWFyY2h8Nnx8ZmVuY2UlMjBjb21wYW55fGVufDB8fDB8fA%3D%3D&auto=format&fit=crop&w=500&q=60",
    "updated_image": "https://images.unsplash.com/photo-1631646109232-9e1cdecb7c13?ixlib=rb-4.0.3&ixid=MnwxMjA3fDB8MHxzZWFyY2h8Nnx8ZmVuY2UlMjBjb21wYW55fGVufDB8fDB8fA%3D%3D&auto=format&fit=crop&w=800&q=80",
    "image_downloaded": true,
    "unique_id": "phoenix_fence_solutions",
    "geohash": "9t9z7suqp123",
    "neighbors": ["desert_fencing_az", "sunbelt_fence_company"],
    "local_image_path": "phoenix_fence_solutions.jpg"
  },
  {
    "title": "Desert Fencing AZ",
    "link": "https://maps.google.com/?cid=9012345678",
    "website": "https://www.desertfencingaz.com",
    "stars": 4.6,
    "reviews": 176.0,
    "phone": "(602) 555-9012",
    "address": "606 Roosevelt St",
    "city": "Phoenix",
    "state": "Arizona",
    "formatted_address": "606 Roosevelt St, Phoenix, AZ 85003, USA",
    "latitude": 33.460,
    "longitude": -112.080,
    "category": "Fence Contactors",
    "photo_url": "https://images.unsplash.com/photo-1532687657156-1e66583880ef?ixlib=rb-4.0.3&ixid=MnwxMjA3fDB8MHxzZWFyY2h8MTB8fGZlbmNlfGVufDB8fDB8fA%3D%3D&auto=format&fit=crop&w=500&q=60",
    "updated_image": "https://images.unsplash.com/photo-1532687657156-1e66583880ef?ixlib=rb-4.0.3&ixid=MnwxMjA3fDB8MHxzZWFyY2h8MTB8fGZlbmNlfGVufDB8fDB8fA%3D%3D&auto=format&fit=crop&w=800&q=80",
    "image_downloaded": true,
    "unique_id": "desert_fencing_az",
    "geohash": "9t9z7suqr456",
    "neighbors": ["phoenix_fence_solutions", "sunbelt_fence_company"],
    "local_image_path": "desert_fencing_az.jpg"
  },
  {
    "title": "Sunbelt Fence Company",
    "link": "https://maps.google.com/?cid=0123456789",
    "website": "https://www.sunbeltfence.com",
    "stars": 4.8,
    "reviews": 211.0,
    "phone": "(602) 555-0123",
    "address": "707 Adams St",
    "city": "Phoenix",
    "state": "Arizona",
    "formatted_address": "707 Adams St, Phoenix, AZ 85007, USA",
    "latitude": 33.450,
    "longitude": -112.085,
    "category": "Fence Contactors",
    "photo_url": "https://images.unsplash.com/photo-1591999894227-2576feade6c6?ixlib=rb-4.0.3&ixid=MnwxMjA3fDB8MHxzZWFyY2h8MjB8fGZlbmNlfGVufDB8fDB8fA%3D%3D&auto=format&fit=crop&w=500&q=60",
    "updated_image": "https://images.unsplash.com/photo-1591999894227-2576feade6c6?ixlib=rb-4.0.3&ixid=MnwxMjA3fDB8MHxzZWFyY2h8MjB8fGZlbmNlfGVufDB8fDB8fA%3D%3D&auto=format&fit=crop&w=800&q=80",
    "image_downloaded": true,
    "unique_id": "sunbelt_fence_company",
    "geohash": "9t9z7suqs789",
    "neighbors": ["phoenix_fence_solutions", "desert_fencing_az"],
    "local_image_path": "sunbelt_fence_company.jpg"
  }
]
